{"type":"Topology","arcs":[],"objects":{"nj_county":{"type":"GeometryCollection","geometries":[{"type":"Point","coordinates":[-74.99694214822395,40.85795600875332],"properties":{"name":"Warren","id":"34041","STATE":"NJ","TYPE":"County","CNTRY":"USA"},"id":"34041"},{"type":"Point","coordinates":[-74.31222818419819,40.658948731579606],"properties":{"name":"Union","id":"34039","STATE":"NJ","TYPE":"County","CNTRY":"USA"},"id":"34039"},{"type":"Point","coordinates":[-74.69080328288331,41.138780289291525],"properties":{"name":"Sussex","id":"34037","STATE":"NJ","TYPE":"County","CNTRY":"USA"},"id":"34037"},{"type":"Point","coordinates":[-74.61682338280117,40.563340416729126],"properties":{"name":"Somerset","id":"34035","STATE":"NJ","TYPE":"County","CNTRY":"USA"},"id":"34035"},{"type":"Point","coordinates":[-75.35181789831495,39.58673678000811],"properties":{"name":"Salem","id":"34033","STATE":"NJ","TYPE":"County","CNTRY":"USA"},"id":"34033"},{"type":"Point","coordinates":[-74.30137791900725,41.033975258194744],"properties":{"name":"Passaic","id":"34031","STATE":"NJ","TYPE":"County","CNTRY":"USA"},"id":"34031"},{"type":"Point","coordinates":[-74.29660211440911,39.91253288590858],"properties":{"name":"Ocean","id":"34029","STATE":"NJ","TYPE":"County","CNTRY":"USA"},"id":"34029"},{"type":"Point","coordinates":[-74.54393344604709,40.861859682690636],"properties":{"name":"Morris","id":"34027","STATE":"NJ","TYPE":"County","CNTRY":"USA"},"id":"34027"},{"type":"Point","coordinates":[-74.22447510628163,40.25817949815201],"properties":{"name":"Monmouth","id":"34025","STATE":"NJ","TYPE":"County","CNTRY":"USA"},"id":"34025"},{"type":"Point","coordinates":[-74.41405528941767,40.437122435714606],"properties":{"name":"Middlesex","id":"34023","STATE":"NJ","TYPE":"County","CNTRY":"USA"},"id":"34023"},{"type":"Point","coordinates":[-74.70157656568244,40.283817222039815],"properties":{"name":"Mercer","id":"34021","STATE":"NJ","TYPE":"County","CNTRY":"USA"},"id":"34021"},{"type":"Point","coordinates":[-74.912063439882,40.56791676108561],"properties":{"name":"Hunterdon","id":"34019","STATE":"NJ","TYPE":"County","CNTRY":"USA"},"id":"34019"},{"type":"Point","coordinates":[-74.07301650865526,40.74163693929532],"properties":{"name":"Hudson","id":"34017","STATE":"NJ","TYPE":"County","CNTRY":"USA"},"id":"34017"},{"type":"Point","coordinates":[-75.14096478164328,39.71839694515007],"properties":{"name":"Gloucester","id":"34015","STATE":"NJ","TYPE":"County","CNTRY":"USA"},"id":"34015"},{"type":"Point","coordinates":[-74.2484031599412,40.78730724079552],"properties":{"name":"Essex","id":"34013","STATE":"NJ","TYPE":"County","CNTRY":"USA"},"id":"34013"},{"type":"Point","coordinates":[-75.1122465451966,39.37047889984254],"properties":{"name":"Cumberland","id":"34011","STATE":"NJ","TYPE":"County","CNTRY":"USA"},"id":"34011"},{"type":"Point","coordinates":[-74.80431142155584,39.14935272274744],"properties":{"name":"Cape May","id":"34009","STATE":"NJ","TYPE":"County","CNTRY":"USA"},"id":"34009"},{"type":"Point","coordinates":[-74.9598544016743,39.80491279607234],"properties":{"name":"Camden","id":"34007","STATE":"NJ","TYPE":"County","CNTRY":"USA"},"id":"34007"},{"type":"Point","coordinates":[-74.66820739204636,39.878304184494844],"properties":{"name":"Burlington","id":"34005","STATE":"NJ","TYPE":"County","CNTRY":"USA"},"id":"34005"},{"type":"Point","coordinates":[-74.07494797768379,40.959525372317046],"properties":{"name":"Bergen","id":"34003","STATE":"NJ","TYPE":"County","CNTRY":"USA"},"id":"34003"},{"type":"Point","coordinates":[-74.68452619803108,39.483308388691356],"properties":{"name":"Atlantic","id":"34001","STATE":"NJ","TYPE":"County","CNTRY":"USA"},"id":"34001"}]}}}